[{"name":"Huashan","detail":"","lon":121.5208275,"lat":25.04727049,"type":"fire"},{"name":"Zhongxiao","detail":"","lon":121.5270839,"lat":25.04368791,"type":"fire"},{"name":"Quanzhou","detail":"","lon":121.5124573,"lat":25.024617,"type":"fire"},{"name":"Chengzhong","detail":"","lon":121.5134431,"lat":25.04695844,"type":"fire"},{"name":"Shuangyuan","detail":"","lon":121.4957885,"lat":25.02856863,"type":"fire"},{"name":"Longshan","detail":"","lon":121.4993304,"lat":25.03867196,"type":"fire"},{"name":"Wanfang","detail":"","lon":121.5664562,"lat":25.00207365,"type":"fire"},{"name":"Jingmei","detail":"","lon":121.5411929,"lat":24.99230784,"type":"fire"},{"name":"Muja","detail":"","lon":121.5634176,"lat":24.98881061,"type":"fire"},{"name":"Baoqiao","detail":"","lon":121.5549032,"lat":24.97990456,"type":"fire"},{"name":"Jinhua","detail":"","lon":121.5277685,"lat":25.0325055,"type":"fire"},{"name":"Fuxing","detail":"","lon":121.5522772,"lat":25.03291685,"type":"fire"},{"name":"Anhe","detail":"","lon":121.5433035,"lat":25.03006919,"type":"fire"},{"name":"Yongji","detail":"","lon":121.6072749,"lat":25.05467448,"type":"fire"},{"name":"Xinyi","detail":"","lon":121.6152943,"lat":25.04507807,"type":"fire"},{"name":"Zhuangjing","detail":"","lon":121.5687628,"lat":25.04081347,"type":"fire"},{"name":"Nangang","detail":"","lon":121.569194,"lat":25.04553769,"type":"fire"},{"name":"Jiuzhuang","detail":"","lon":121.5652268,"lat":25.029802,"type":"fire"},{"name":"Chengde","detail":"","lon":121.5870215,"lat":25.04794344,"type":"fire"},{"name":"Dazhi","detail":"","lon":121.5565041,"lat":25.08021896,"type":"fire"},{"name":"Yuanshan","detail":"","lon":121.5372317,"lat":25.05511466,"type":"fire"},{"name":"Songjiang","detail":"","lon":121.5291845,"lat":25.06852639,"type":"fire"},{"name":"Zhonglun","detail":"","lon":121.5629792,"lat":25.04854348,"type":"fire"},{"name":"Bade","detail":"","lon":121.545852,"lat":25.04838798,"type":"fire"},{"name":"Minquan","detail":"","lon":121.6129337,"lat":25.06747547,"type":"fire"},{"name":"Neihu","detail":"","lon":121.6016584,"lat":25.08389301,"type":"fire"},{"name":"Dahu","detail":"","lon":121.5903792,"lat":25.06951824,"type":"fire"},{"name":"Donghu","detail":"","lon":121.5777175,"lat":25.06690161,"type":"fire"},{"name":"Jiancheng","detail":"","lon":121.5184367,"lat":25.05471389,"type":"fire"},{"name":"Yanping","detail":"","lon":121.5113781,"lat":25.05024311,"type":"fire"},{"name":"Datong","detail":"","lon":121.5181432,"lat":25.07019392,"type":"fire"},{"name":"Shanzihou","detail":"","lon":121.5456841,"lat":25.13386112,"type":"fire"},{"name":"Tianmu","detail":"","lon":121.5329169,"lat":25.12527004,"type":"fire"},{"name":"Fuan","detail":"","lon":121.4973834,"lat":25.0955684,"type":"fire"},{"name":"Shezi","detail":"","lon":121.5115,"lat":25.07910089,"type":"fire"},{"name":"Jiantan","detail":"","lon":121.5271183,"lat":25.0900491,"type":"fire"},{"name":"Shuangxi","detail":"","lon":121.5446958,"lat":25.09763096,"type":"fire"},{"name":"Hougang","detail":"","lon":121.5466584,"lat":25.15158397,"type":"fire"},{"name":"Yangmingshan","detail":"","lon":121.5024755,"lat":25.13516428,"type":"fire"},{"name":"Guangming","detail":"","lon":121.4666824,"lat":25.12306434,"type":"fire"},{"name":"Guandu","detail":"","lon":121.5169199,"lat":25.11795191,"type":"fire"},{"name":"Shipai","detail":"","lon":121.4929068,"lat":25.14529135,"type":"fire"},{"name":"Xiushan","detail":"","lon":121.5180612,"lat":25.08734074,"type":"fire"}]